[{"_id":"5ca51b214442b650d47ad21e","address":"3815 N 54th Way","city":"Phoenix","zip":"85018","state":"AZ","price":200000,"beds":3,"baths":2.5,"size":1876,"listingType":"Sale","pictureURL":"https://s3-us-west-1.amazonaws.com/zallosimilarhomes/001.jpg","createdAt":"2019-04-03T20:44:17.470Z","__v":0,"lat":33.4919765,"lng":-111.9661756},{"_id":"5ca51b214442b650d47ad222","address":"5847 E Calle Tuberia","city":"Phoenix","zip":"85018","state":"AZ","price":520000,"beds":5,"baths":4,"size":3317,"listingType":"Sale","pictureURL":"https://s3-us-west-1.amazonaws.com/zallosimilarhomes/005.jpg","createdAt":"2019-04-03T20:44:17.471Z","__v":0,"lat":33.4932031,"lng":-111.954741},{"_id":"5ca51b214442b650d47ad226","address":"5529 E Lafayette Blvd","city":"Phoenix","zip":"85018","state":"AZ","price":230000,"beds":3,"baths":2,"size":2310,"listingType":"Sale","pictureURL":"https://s3-us-west-1.amazonaws.com/zallosimilarhomes/009.jpg","createdAt":"2019-04-03T20:44:17.471Z","__v":0,"lat":33.494259,"lng":-111.9611686},{"_id":"5ca51b214442b650d47ad250","address":"1307 W Alamo Dr","city":"Chandler","zip":"85224","state":"AZ","price":350000,"beds":4,"baths":3,"size":2705,"listingType":"Sale","pictureURL":"https://s3-us-west-1.amazonaws.com/zallosimilarhomes/051.jpg","createdAt":"2019-04-03T20:44:17.476Z","__v":0,"lat":33.3488049,"lng":-111.8659412},{"_id":"5ca51b214442b650d47ad257","address":"37 Biltmore Est","city":"Phoenix","zip":"85016","state":"AZ","price":200000,"beds":3,"baths":2.5,"size":1876,"listingType":"Sale","pictureURL":"https://s3-us-west-1.amazonaws.com/zallosimilarhomes/058.jpg","createdAt":"2019-04-03T20:44:17.477Z","__v":0,"lat":33.5170328,"lng":-112.0246287},{"_id":"5ca51b214442b650d47ad263","address":"777 W Chandler Blvd","city":"Chandler","zip":"85225","state":"AZ","price":410000,"beds":4,"baths":4,"size":3140,"listingType":"Sale","pictureURL":"https://s3-us-west-1.amazonaws.com/zallosimilarhomes/070.jpg","createdAt":"2019-04-03T20:44:17.478Z","__v":0,"lat":33.3057166,"lng":-111.8542968},{"_id":"5ca51b214442b650d47ad273","address":"712 W Manhatton Dr","city":"Tempe","zip":"85282","state":"AZ","price":620000,"beds":5,"baths":4,"size":3317,"listingType":"Sale","pictureURL":"https://s3-us-west-1.amazonaws.com/zallosimilarhomes/086.jpg","createdAt":"2019-04-03T20:44:17.481Z","__v":0,"lat":33.38975490000001,"lng":-111.9498038},{"_id":"5ca51b214442b650d47ad22f","address":"3419 N Hartford St","city":"Chandler","zip":"85225","state":"AZ","price":360000,"beds":4,"baths":4,"size":2740,"listingType":"Sale","pictureURL":"https://s3-us-west-1.amazonaws.com/zallosimilarhomes/018.jpg","createdAt":"2019-04-03T20:44:17.472Z","__v":0,"lat":33.3558746,"lng":-111.8506637},{"_id":"5ca51b214442b650d47ad243","address":"3093 E Bluebird Pl","city":"Chandler","zip":"85249","state":"AZ","price":280000,"beds":3,"baths":2.5,"size":3175,"listingType":"Sale","pictureURL":"https://s3-us-west-1.amazonaws.com/zallosimilarhomes/038.jpg","createdAt":"2019-04-03T20:44:17.475Z","__v":0,"lat":33.2712931,"lng":-111.7871309},{"_id":"5ca51b214442b650d47ad245","address":"2507 E Minton St","city":"Mesa","zip":"85213","state":"AZ","price":180000,"beds":2,"baths":2,"size":1876,"listingType":"Sale","pictureURL":"https://s3-us-west-1.amazonaws.com/zallosimilarhomes/040.jpg","createdAt":"2019-04-03T20:44:17.475Z","__v":0,"lat":33.4612275,"lng":-111.7766973},{"_id":"5ca51b214442b650d47ad246","address":"23597 S 223rd Way","city":"Queen Creek","zip":"85142","state":"AZ","price":125000,"beds":2,"baths":1,"size":1340,"listingType":"Sale","pictureURL":"https://s3-us-west-1.amazonaws.com/zallosimilarhomes/041.jpg","createdAt":"2019-04-03T20:44:17.475Z","__v":0,"lat":33.2343008,"lng":-111.6024222},{"_id":"5ca51b214442b650d47ad24f","address":"23129 E Munoz St","city":"Queen Creek","zip":"85142","state":"AZ","price":720000,"beds":4,"baths":4,"size":2740,"listingType":"Sale","pictureURL":"https://s3-us-west-1.amazonaws.com/zallosimilarhomes/050.jpg","createdAt":"2019-04-03T20:44:17.476Z","__v":0,"lat":33.2458597,"lng":-111.5846539},{"_id":"5ca51b214442b650d47ad268","address":"24618 S 195th Way","city":"Queen Creek","zip":"85142","state":"AZ","price":350000,"beds":4,"baths":3,"size":2705,"listingType":"Sale","pictureURL":"https://s3-us-west-1.amazonaws.com/zallosimilarhomes/075.jpg","createdAt":"2019-04-03T20:44:17.478Z","__v":0,"lat":33.2125198,"lng":-111.6610164},{"_id":"5ca51b214442b650d47ad23e","address":"17655 E Bronco Dr","city":"Queen Creek","zip":"85142","state":"AZ","price":150000,"beds":2,"baths":2,"size":1500,"listingType":"Sale","pictureURL":"https://s3-us-west-1.amazonaws.com/zallosimilarhomes/033.jpg","createdAt":"2019-04-03T20:44:17.474Z","__v":0,"lat":33.2461852,"lng":-111.7020227},{"_id":"5ca51b214442b650d47ad23f","address":"2015 E Minton St","city":"Mesa","zip":"85213","state":"AZ","price":250000,"beds":3,"baths":2,"size":1900,"listingType":"Sale","pictureURL":"https://s3-us-west-1.amazonaws.com/zallosimilarhomes/034.jpg","createdAt":"2019-04-03T20:44:17.474Z","__v":0,"lat":33.4613768,"lng":-111.7872241},{"_id":"5ca51b214442b650d47ad252","address":"2324 W El Alba Way","city":"Chandler","zip":"85224","state":"AZ","price":460000,"beds":5,"baths":4,"size":2980,"listingType":"Sale","pictureURL":"https://s3-us-west-1.amazonaws.com/zallosimilarhomes/053.jpg","createdAt":"2019-04-03T20:44:17.476Z","__v":0,"lat":33.339918,"lng":-111.88299},{"_id":"5ca51b214442b650d47ad254","address":"1023 E Buena Vista Dr","city":"Tempe","zip":"85284","state":"AZ","price":870000,"beds":4,"baths":4,"size":2740,"listingType":"Sale","pictureURL":"https://s3-us-west-1.amazonaws.com/zallosimilarhomes/055.jpg","createdAt":"2019-04-03T20:44:17.476Z","__v":0,"lat":33.3395567,"lng":-111.9250947},{"_id":"5ca51b214442b650d47ad25e","address":"4409 E Scorpio Pl","city":"Chandler","zip":"85249","state":"AZ","price":920000,"beds":4,"baths":3,"size":2508,"listingType":"Sale","pictureURL":"https://s3-us-west-1.amazonaws.com/zallosimilarhomes/065.jpg","createdAt":"2019-04-03T20:44:17.477Z","__v":0,"lat":33.221635,"lng":-111.76528},{"_id":"5ca51b214442b650d47ad228","address":"173 S Quarty Cir","city":"Chandler","zip":"85225","state":"AZ","price":310000,"beds":4,"baths":3,"size":2200,"listingType":"Sale","pictureURL":"https://s3-us-west-1.amazonaws.com/zallosimilarhomes/011.jpg","createdAt":"2019-04-03T20:44:17.472Z","__v":0,"lat":33.3024789,"lng":-111.8505705},{"_id":"5ca51b214442b650d47ad255","address":"1307 W Alamo Dr","city":"Chandler","zip":"85224","state":"AZ","price":350000,"beds":4,"baths":3,"size":2705,"listingType":"Sale","pictureURL":"https://s3-us-west-1.amazonaws.com/zallosimilarhomes/056.jpg","createdAt":"2019-04-03T20:44:17.476Z","__v":0},{"_id":"5ca51b214442b650d47ad25a","address":"3461 E Kenwood St","city":"Mesa","zip":"85213","state":"AZ","price":520000,"beds":5,"baths":4,"size":3317,"listingType":"Sale","pictureURL":"https://s3-us-west-1.amazonaws.com/zallosimilarhomes/061.jpg","createdAt":"2019-04-03T20:44:17.477Z","__v":0,"lat":33.4534698,"lng":-111.7558301},{"_id":"5ca51b214442b650d47ad269","address":"2654 E Mead Pl","city":"Chandler","zip":"85249","state":"AZ","price":180000,"beds":3,"baths":2,"size":1658,"listingType":"Sale","pictureURL":"https://s3-us-west-1.amazonaws.com/zallosimilarhomes/076.jpg","createdAt":"2019-04-03T20:44:17.478Z","__v":0,"lat":33.2387465,"lng":-111.7951424},{"_id":"5ca51b214442b650d47ad26a","address":"1348 E Los Arboles Dr","city":"Tempe","zip":"85284","state":"AZ","price":460000,"beds":5,"baths":4,"size":2980,"listingType":"Sale","pictureURL":"https://s3-us-west-1.amazonaws.com/zallosimilarhomes/077.jpg","createdAt":"2019-04-03T20:44:17.479Z","__v":0,"lat":33.3356582,"lng":-111.9182013},{"_id":"5ca51b214442b650d47ad27f","address":"1212 W Island Dr","city":"Chandler","zip":"85248","state":"AZ","price":310000,"beds":4,"baths":3,"size":2200,"listingType":"Sale","pictureURL":"https://s3-us-west-1.amazonaws.com/zallosimilarhomes/098.jpg","createdAt":"2019-04-03T20:44:17.482Z","__v":0,"lat":33.2569157,"lng":-111.8626808},{"_id":"5ca51b214442b650d47ad22a","address":"15633 E Lonesome Ln","city":"Gilbert","zip":"85298","state":"AZ","price":667000,"beds":3,"baths":2.5,"size":1780,"listingType":"Sale","pictureURL":"https://s3-us-west-1.amazonaws.com/zallosimilarhomes/013.jpg","createdAt":"2019-04-03T20:44:17.472Z","__v":0,"lat":33.2363258,"lng":-111.7453572},{"_id":"5ca51b214442b650d47ad22b","address":"2565 E Via De Palmas","city":"Gilbert","zip":"85298","state":"AZ","price":230000,"beds":3,"baths":2,"size":2310,"listingType":"Sale","pictureURL":"https://s3-us-west-1.amazonaws.com/zallosimilarhomes/014.jpg","createdAt":"2019-04-03T20:44:17.472Z","__v":0,"lat":33.2289364,"lng":-111.7347066},{"_id":"5ca51b214442b650d47ad22e","address":"2719 E James St","city":"Gilbert","zip":"85296","state":"AZ","price":400000,"beds":4,"baths":3,"size":2765,"listingType":"Sale","pictureURL":"https://s3-us-west-1.amazonaws.com/zallosimilarhomes/017.jpg","createdAt":"2019-04-03T20:44:17.472Z","__v":0,"lat":33.325093,"lng":-111.7314228},{"_id":"5ca51b214442b650d47ad260","address":"3460 E Lynx Pl","city":"Chandler","zip":"85249","state":"AZ","price":180000,"beds":2,"baths":2,"size":1876,"listingType":"Sale","pictureURL":"https://s3-us-west-1.amazonaws.com/zallosimilarhomes/067.jpg","createdAt":"2019-04-03T20:44:17.478Z","__v":0,"lat":33.2373083,"lng":-111.782473},{"_id":"5ca51b214442b650d47ad267","address":"3330 S Buckskin Way","city":"Chandler","zip":"85286","state":"AZ","price":125000,"beds":2,"baths":1,"size":1340,"listingType":"Sale","pictureURL":"https://s3-us-west-1.amazonaws.com/zallosimilarhomes/074.jpg","createdAt":"2019-04-03T20:44:17.478Z","__v":0,"lat":33.2596254,"lng":-111.78231},{"_id":"5ca51b214442b650d47ad231","address":"1192 E Buffalo St","city":"Chandler","zip":"85225","state":"AZ","price":780000,"beds":4,"baths":4,"size":2740,"listingType":"Sale","pictureURL":"https://s3-us-west-1.amazonaws.com/zallosimilarhomes/020.jpg","createdAt":"2019-04-03T20:44:17.473Z","__v":0,"lat":33.3047172,"lng":-111.8160328},{"_id":"5ca51b214442b650d47ad240","address":"17740 E Appaloosa Dr","city":"Queen Creek","zip":"85142","state":"AZ","price":460000,"beds":5,"baths":4,"size":2980,"listingType":"Sale","pictureURL":"https://s3-us-west-1.amazonaws.com/zallosimilarhomes/035.jpg","createdAt":"2019-04-03T20:44:17.474Z","__v":0,"lat":33.2479361,"lng":-111.700262},{"_id":"5ca51b214442b650d47ad26b","address":"648 E Harwell Rd","city":"Gilbert","zip":"85234","state":"AZ","price":125000,"beds":2,"baths":1,"size":1340,"listingType":"Sale","pictureURL":"https://s3-us-west-1.amazonaws.com/zallosimilarhomes/078.jpg","createdAt":"2019-04-03T20:44:17.479Z","__v":0,"lat":33.3778597,"lng":-111.7746478},{"_id":"5ca51b214442b650d47ad234","address":"4505 S Virginia Way","city":"Chandler","zip":"85249","state":"AZ","price":870000,"beds":4,"baths":4,"size":3140,"listingType":"Sale","pictureURL":"https://s3-us-west-1.amazonaws.com/zallosimilarhomes/023.jpg","createdAt":"2019-04-03T20:44:17.473Z","__v":0,"lat":33.239084,"lng":-111.834734},{"_id":"5ca51b214442b650d47ad24a","address":"6525 S Bell Ct","city":"Chandler","zip":"85249","state":"AZ","price":375000,"beds":4,"baths":4,"size":2830,"listingType":"Sale","pictureURL":"https://s3-us-west-1.amazonaws.com/zallosimilarhomes/045.jpg","createdAt":"2019-04-03T20:44:17.475Z","__v":0,"lat":33.2116872,"lng":-111.7909503},{"_id":"5ca51b214442b650d47ad24d","address":"1307 W Alamo Dr","city":"Chandler","zip":"85224","state":"AZ","price":350000,"beds":4,"baths":3,"size":2705,"listingType":"Sale","pictureURL":"https://s3-us-west-1.amazonaws.com/zallosimilarhomes/048.jpg","createdAt":"2019-04-03T20:44:17.476Z","__v":0},{"_id":"5ca51b214442b650d47ad25f","address":"2362 N Brimhall","city":"Mesa","zip":"85203","state":"AZ","price":200000,"beds":3,"baths":2.5,"size":1876,"listingType":"Sale","pictureURL":"https://s3-us-west-1.amazonaws.com/zallosimilarhomes/066.jpg","createdAt":"2019-04-03T20:44:17.477Z","__v":0,"lat":33.4589568,"lng":-111.8167519},{"_id":"5ca51b214442b650d47ad261","address":"1386 N El Dorado Dr","city":"Chandler","zip":"85224","state":"AZ","price":275000,"beds":4,"baths":2,"size":2270,"listingType":"Sale","pictureURL":"https://s3-us-west-1.amazonaws.com/zallosimilarhomes/068.jpg","createdAt":"2019-04-03T20:44:17.478Z","__v":0,"lat":33.3249228,"lng":-111.8822202},{"_id":"5ca51b214442b650d47ad27a","address":"1307 W Alamo Dr","city":"Chandler","zip":"85224","state":"AZ","price":910500,"beds":4,"baths":3,"size":2705,"listingType":"Sale","pictureURL":"https://s3-us-west-1.amazonaws.com/zallosimilarhomes/093.jpg","createdAt":"2019-04-03T20:44:17.481Z","__v":0},{"_id":"5ca51b214442b650d47ad221","address":"334 W Grand Canyon Dr","city":"Chandler","zip":"85248","state":"AZ","price":310000,"beds":4,"baths":3,"size":2200,"listingType":"Sale","pictureURL":"https://s3-us-west-1.amazonaws.com/zallosimilarhomes/004.jpg","createdAt":"2019-04-03T20:44:17.471Z","__v":0,"lat":33.2450076,"lng":-111.8479603},{"_id":"5ca51b214442b650d47ad23a","address":"711 W Germann Rd","city":"Chandler","zip":"85286","state":"AZ","price":375000,"beds":4,"baths":4,"size":2830,"listingType":"Sale","pictureURL":"https://s3-us-west-1.amazonaws.com/zallosimilarhomes/029.jpg","createdAt":"2019-04-03T20:44:17.474Z","__v":0,"lat":33.2749672,"lng":-111.85262},{"_id":"5ca51b214442b650d47ad23b","address":"3531 E Kenwood St","city":"Mesa","zip":"85213","state":"AZ","price":200000,"beds":3,"baths":2.5,"size":1876,"listingType":"Sale","pictureURL":"https://s3-us-west-1.amazonaws.com/zallosimilarhomes/030.jpg","createdAt":"2019-04-03T20:44:17.474Z","__v":0,"lat":33.4535019,"lng":-111.7666554},{"_id":"5ca51b214442b650d47ad23c","address":"3917 E Elmwood St","city":"Mesa","zip":"85205","state":"AZ","price":180000,"beds":3,"baths":2,"size":1658,"listingType":"Sale","pictureURL":"https://s3-us-west-1.amazonaws.com/zallosimilarhomes/031.jpg","createdAt":"2019-04-03T20:44:17.474Z","__v":0,"lat":33.4320751,"lng":-111.7469801},{"_id":"5ca51b214442b650d47ad242","address":"2950 E Latham Way","city":"Gilbert","zip":"85297","state":"AZ","price":250000,"beds":3,"baths":2,"size":1900,"listingType":"Sale","pictureURL":"https://s3-us-west-1.amazonaws.com/zallosimilarhomes/037.jpg","createdAt":"2019-04-03T20:44:17.475Z","__v":0,"lat":33.2685278,"lng":-111.7260196},{"_id":"5ca51b214442b650d47ad262","address":"4450 E Gemini Pl","city":"Chandler","zip":"85249","state":"AZ","price":410000,"beds":4,"baths":4,"size":3140,"listingType":"Sale","pictureURL":"https://s3-us-west-1.amazonaws.com/zallosimilarhomes/069.jpg","createdAt":"2019-04-03T20:44:17.478Z","__v":0,"lat":33.221237,"lng":-111.7644704},{"_id":"5ca51b214442b650d47ad26c","address":"542 N Acacia Dr","city":"Gilbert","zip":"85233","state":"AZ","price":375000,"beds":4,"baths":4,"size":2830,"listingType":"Sale","pictureURL":"https://s3-us-west-1.amazonaws.com/zallosimilarhomes/079.jpg","createdAt":"2019-04-03T20:44:17.479Z","__v":0,"lat":33.3598631,"lng":-111.8199221},{"_id":"5ca51b214442b650d47ad272","address":"480 E Canyon Creek Ct","city":"Gilbert","zip":"85295","state":"AZ","price":150000,"beds":2,"baths":2,"size":1500,"listingType":"Sale","pictureURL":"https://s3-us-west-1.amazonaws.com/zallosimilarhomes/085.jpg","createdAt":"2019-04-03T20:44:17.481Z","__v":0,"lat":33.3021588,"lng":-111.7795852},{"_id":"5ca51b214442b650d47ad220","address":"3014 E Portola Valley Dr","city":"Gilbert","zip":"85297","state":"AZ","price":250000,"beds":3,"baths":2,"size":1900,"listingType":"Sale","pictureURL":"https://s3-us-west-1.amazonaws.com/zallosimilarhomes/003.jpg","createdAt":"2019-04-03T20:44:17.471Z","__v":0,"lat":33.2858768,"lng":-111.7248086},{"_id":"5ca51b214442b650d47ad22c","address":"6114 W Trovita Pl","city":"Chandler","zip":"85226","state":"AZ","price":360000,"beds":4,"baths":4,"size":2740,"listingType":"Sale","pictureURL":"https://s3-us-west-1.amazonaws.com/zallosimilarhomes/015.jpg","createdAt":"2019-04-03T20:44:17.472Z","__v":0,"lat":33.3223892,"lng":-111.9480106},{"_id":"5ca51b214442b650d47ad237","address":"69 S Sawyer","city":"Gilbert","zip":"85296","state":"AZ","price":310000,"beds":4,"baths":3,"size":2200,"listingType":"Sale","pictureURL":"https://s3-us-west-1.amazonaws.com/zallosimilarhomes/026.jpg","createdAt":"2019-04-03T20:44:17.474Z","__v":0,"lat":33.3490955,"lng":-111.7303931},{"_id":"5ca51b214442b650d47ad244","address":"12011 E Via De Palmas","city":"Chandler","zip":"85249","state":"AZ","price":240000,"beds":3,"baths":2.5,"size":1780,"listingType":"Sale","pictureURL":"https://s3-us-west-1.amazonaws.com/zallosimilarhomes/039.jpg","createdAt":"2019-04-03T20:44:17.475Z","__v":0,"lat":33.229165,"lng":-111.8235335},{"_id":"5ca51b214442b650d47ad24b","address":"4405 E Virgo Pl","city":"Chandler","zip":"85249","state":"AZ","price":275000,"beds":4,"baths":2,"size":2270,"listingType":"Sale","pictureURL":"https://s3-us-west-1.amazonaws.com/zallosimilarhomes/046.jpg","createdAt":"2019-04-03T20:44:17.475Z","__v":0,"lat":33.2235658,"lng":-111.7653321},{"_id":"5ca51b214442b650d47ad251","address":"2550 E Country Shadows St","city":"Gilbert","zip":"85298","state":"AZ","price":400000,"beds":4,"baths":3,"size":2765,"listingType":"Sale","pictureURL":"https://s3-us-west-1.amazonaws.com/zallosimilarhomes/052.jpg","createdAt":"2019-04-03T20:44:17.476Z","__v":0,"lat":33.2221697,"lng":-111.7348798},{"_id":"5ca51b214442b650d47ad25d","address":"3339 E Vallejo Ct","city":"Gilbert","zip":"85298","state":"AZ","price":180000,"beds":3,"baths":2,"size":1658,"listingType":"Sale","pictureURL":"https://s3-us-west-1.amazonaws.com/zallosimilarhomes/064.jpg","createdAt":"2019-04-03T20:44:17.477Z","__v":0,"lat":33.223357,"lng":-111.7175423},{"_id":"5ca51b214442b650d47ad281","address":"2143 N Citrus Cv","city":"Mesa","zip":"85213","state":"AZ","price":400000,"beds":4,"baths":3,"size":2765,"listingType":"Sale","pictureURL":"https://s3-us-west-1.amazonaws.com/zallosimilarhomes/100.jpg","createdAt":"2019-04-03T20:44:17.482Z","__v":0,"lat":33.4547764,"lng":-111.7579632},{"_id":"5ca51b214442b650d47ad235","address":"2526 E Ravenswood Dr","city":"Gilbert","zip":"85298","state":"AZ","price":150000,"beds":2,"baths":2,"size":1500,"listingType":"Sale","pictureURL":"https://s3-us-west-1.amazonaws.com/zallosimilarhomes/024.jpg","createdAt":"2019-04-03T20:44:17.473Z","__v":0,"lat":33.2203883,"lng":-111.7353834},{"_id":"5ca51b214442b650d47ad238","address":"7453 S Rita Ln","city":"Tempe","zip":"85283","state":"AZ","price":125000,"beds":2,"baths":1,"size":1340,"listingType":"Sale","pictureURL":"https://s3-us-west-1.amazonaws.com/zallosimilarhomes/027.jpg","createdAt":"2019-04-03T20:44:17.474Z","__v":0,"lat":33.349979,"lng":-111.923317},{"_id":"5ca51b214442b650d47ad247","address":"2568 S Riata Ct","city":"Gilbert","zip":"85295","state":"AZ","price":360000,"beds":4,"baths":4,"size":2740,"listingType":"Sale","pictureURL":"https://s3-us-west-1.amazonaws.com/zallosimilarhomes/042.jpg","createdAt":"2019-04-03T20:44:17.475Z","__v":0,"lat":33.3036847,"lng":-111.7780947},{"_id":"5ca51b214442b650d47ad248","address":"313 S Equestrian Ct","city":"Gilbert","zip":"85296","state":"AZ","price":360000,"beds":4,"baths":4,"size":2740,"listingType":"Sale","pictureURL":"https://s3-us-west-1.amazonaws.com/zallosimilarhomes/043.jpg","createdAt":"2019-04-03T20:44:17.475Z","__v":0,"lat":33.3445503,"lng":-111.7481679},{"_id":"5ca51b214442b650d47ad253","address":"2094 E Aris Dr","city":"Gilbert","zip":"85298","state":"AZ","price":275000,"beds":4,"baths":2,"size":2270,"listingType":"Sale","pictureURL":"https://s3-us-west-1.amazonaws.com/zallosimilarhomes/054.jpg","createdAt":"2019-04-03T20:44:17.476Z","__v":0,"lat":33.2407479,"lng":-111.7448237},{"_id":"5ca51b214442b650d47ad278","address":"3305 E Birchwood Pl","city":"Chandler","zip":"85249","state":"AZ","price":400000,"beds":4,"baths":3,"size":2765,"listingType":"Sale","pictureURL":"https://s3-us-west-1.amazonaws.com/zallosimilarhomes/091.jpg","createdAt":"2019-04-03T20:44:17.481Z","__v":0,"lat":33.2268062,"lng":-111.7841499},{"_id":"5ca51b214442b650d47ad279","address":"6910 S Star Dr","city":"Gilbert","zip":"85298","state":"AZ","price":375000,"beds":4,"baths":4,"size":2830,"listingType":"Sale","pictureURL":"https://s3-us-west-1.amazonaws.com/zallosimilarhomes/092.jpg","createdAt":"2019-04-03T20:44:17.481Z","__v":0,"lat":33.2247638,"lng":-111.6942528},{"_id":"5ca51b214442b650d47ad232","address":"3142 E Portola Valley Ct","city":"Gilbert","zip":"85297","state":"AZ","price":550000,"beds":5,"baths":5,"size":3290,"listingType":"Sale","pictureURL":"https://s3-us-west-1.amazonaws.com/zallosimilarhomes/021.jpg","createdAt":"2019-04-03T20:44:17.473Z","__v":0,"lat":33.2858693,"lng":-111.722107},{"_id":"5ca51b214442b650d47ad23d","address":"7910 E Oasis St","city":"Mesa","zip":"85207","state":"AZ","price":520000,"beds":5,"baths":4,"size":3317,"listingType":"Sale","pictureURL":"https://s3-us-west-1.amazonaws.com/zallosimilarhomes/032.jpg","createdAt":"2019-04-03T20:44:17.474Z","__v":0,"lat":33.4680189,"lng":-111.6607702},{"_id":"5ca51b214442b650d47ad276","address":"3037 N 53rd St","city":"Phoenix","zip":"85018","state":"AZ","price":230000,"beds":3,"baths":2,"size":2310,"listingType":"Sale","pictureURL":"https://s3-us-west-1.amazonaws.com/zallosimilarhomes/089.jpg","createdAt":"2019-04-03T20:44:17.481Z","__v":0,"lat":33.4832753,"lng":-111.967177},{"_id":"5ca51b214442b650d47ad227","address":"3043 E Ivy St","city":"Mesa","zip":"85213","state":"AZ","price":520000,"beds":5,"baths":4,"size":3317,"listingType":"Sale","pictureURL":"https://s3-us-west-1.amazonaws.com/zallosimilarhomes/010.jpg","createdAt":"2019-04-03T20:44:17.471Z","__v":0,"lat":33.4455202,"lng":-111.7655184},{"_id":"5ca51b214442b650d47ad230","address":"4112 E Nora Cir","city":"Mesa","zip":"85215","state":"AZ","price":360000,"beds":4,"baths":4,"size":2740,"listingType":"Sale","pictureURL":"https://s3-us-west-1.amazonaws.com/zallosimilarhomes/019.jpg","createdAt":"2019-04-03T20:44:17.473Z","__v":0,"lat":33.465657,"lng":-111.7451241},{"_id":"5ca51b214442b650d47ad233","address":"9138 E Dennis St","city":"Mesa","zip":"85207","state":"AZ","price":240000,"beds":3,"baths":2.5,"size":1780,"listingType":"Sale","pictureURL":"https://s3-us-west-1.amazonaws.com/zallosimilarhomes/022.jpg","createdAt":"2019-04-03T20:44:17.473Z","__v":0,"lat":33.4282292,"lng":-111.6334206},{"_id":"5ca51b214442b650d47ad249","address":"1320 N Mcqueen Rd","city":"Chandler","zip":"85225","state":"AZ","price":550000,"beds":5,"baths":5,"size":3290,"listingType":"Sale","pictureURL":"https://s3-us-west-1.amazonaws.com/zallosimilarhomes/044.jpg","createdAt":"2019-04-03T20:44:17.475Z","__v":0,"lat":33.3257526,"lng":-111.8244939},{"_id":"5ca51b214442b650d47ad256","address":"11423 E Bellflower Ct","city":"Chandler","zip":"85249","state":"AZ","price":375000,"beds":4,"baths":4,"size":2830,"listingType":"Sale","pictureURL":"https://s3-us-west-1.amazonaws.com/zallosimilarhomes/057.jpg","createdAt":"2019-04-03T20:44:17.477Z","__v":0,"lat":33.2061452,"lng":-111.8352929},{"_id":"5ca51b214442b650d47ad25c","address":"3865 E Cherry Hill","city":"Gilbert","zip":"85298","state":"AZ","price":180000,"beds":2,"baths":2,"size":1876,"listingType":"Sale","pictureURL":"https://s3-us-west-1.amazonaws.com/zallosimilarhomes/063.jpg","createdAt":"2019-04-03T20:44:17.477Z","__v":0,"lat":33.217459,"lng":-111.7342385},{"_id":"5ca51b214442b650d47ad271","address":"2573 E Jude Ln","city":"Gilbert","zip":"85298","state":"AZ","price":240000,"beds":3,"baths":2.5,"size":1780,"listingType":"Sale","pictureURL":"https://s3-us-west-1.amazonaws.com/zallosimilarhomes/084.jpg","createdAt":"2019-04-03T20:44:17.481Z","__v":0,"lat":33.2555055,"lng":-111.7340282},{"_id":"5ca51b214442b650d47ad27b","address":"3100 E Bonanza Rd","city":"Gilbert","zip":"85297","state":"AZ","price":125000,"beds":2,"baths":1,"size":1340,"listingType":"Sale","pictureURL":"https://s3-us-west-1.amazonaws.com/zallosimilarhomes/094.jpg","createdAt":"2019-04-03T20:44:17.482Z","__v":0,"lat":33.2883894,"lng":-111.7229454},{"_id":"5ca51b214442b650d47ad223","address":"4300 E Stottler Dr","city":"Gilbert","zip":"85296","state":"AZ","price":350000,"beds":4,"baths":3,"size":2705,"listingType":"Sale","pictureURL":"https://s3-us-west-1.amazonaws.com/zallosimilarhomes/006.jpg","createdAt":"2019-04-03T20:44:17.471Z","__v":0,"lat":33.3335473,"lng":-111.6975133},{"_id":"5ca51b214442b650d47ad239","address":"2837 E Austin Dr","city":"Gilbert","zip":"85296","state":"AZ","price":240000,"beds":3,"baths":2.5,"size":1780,"listingType":"Sale","pictureURL":"https://s3-us-west-1.amazonaws.com/zallosimilarhomes/028.jpg","createdAt":"2019-04-03T20:44:17.474Z","__v":0,"lat":33.3411241,"lng":-111.7292278},{"_id":"5ca51b214442b650d47ad24c","address":"5508 E Pinchot Ave","city":"Phoenix","zip":"85018","state":"AZ","price":310000,"beds":4,"baths":3,"size":2200,"listingType":"Sale","pictureURL":"https://s3-us-west-1.amazonaws.com/zallosimilarhomes/047.jpg","createdAt":"2019-04-03T20:44:17.476Z","__v":0,"lat":33.482122,"lng":-111.9628453},{"_id":"5ca51b214442b650d47ad259","address":"3518 E Kenwood St","city":"Mesa","zip":"85213","state":"AZ","price":360000,"beds":4,"baths":4,"size":2740,"listingType":"Sale","pictureURL":"https://s3-us-west-1.amazonaws.com/zallosimilarhomes/060.jpg","createdAt":"2019-04-03T20:44:17.477Z","__v":0,"lat":33.454124,"lng":-111.7549916},{"_id":"5ca51b214442b650d47ad25b","address":"3816 E Minton Pl","city":"Mesa","zip":"85215","state":"AZ","price":375000,"beds":4,"baths":4,"size":2830,"listingType":"Sale","pictureURL":"https://s3-us-west-1.amazonaws.com/zallosimilarhomes/062.jpg","createdAt":"2019-04-03T20:44:17.477Z","__v":0,"lat":33.462492,"lng":-111.7484706},{"_id":"5ca51b214442b650d47ad264","address":"13024 E San Carlos Pl","city":"Chandler","zip":"85249","state":"AZ","price":250000,"beds":3,"baths":2,"size":1900,"listingType":"Sale","pictureURL":"https://s3-us-west-1.amazonaws.com/zallosimilarhomes/071.jpg","createdAt":"2019-04-03T20:44:17.478Z","__v":0,"lat":33.235331,"lng":-111.8010113},{"_id":"5ca51b214442b650d47ad26d","address":"2351 E Cherrywood Pl","city":"Chandler","zip":"85249","state":"AZ","price":180000,"beds":3,"baths":2,"size":1658,"listingType":"Sale","pictureURL":"https://s3-us-west-1.amazonaws.com/zallosimilarhomes/080.jpg","createdAt":"2019-04-03T20:44:17.480Z","__v":0,"lat":33.232694,"lng":-111.7996663},{"_id":"5ca51b214442b650d47ad21f","address":"2137 E Pickett Ct","city":"Gilbert","zip":"85298","state":"AZ","price":350000,"beds":4,"baths":3,"size":2508,"listingType":"Sale","pictureURL":"https://s3-us-west-1.amazonaws.com/zallosimilarhomes/002.jpg","createdAt":"2019-04-03T20:44:17.471Z","__v":0,"lat":33.2471591,"lng":-111.7437196},{"_id":"5ca51b214442b650d47ad224","address":"1150 W Saragosa St","city":"Chandler","zip":"85224","state":"AZ","price":150000,"beds":2,"baths":2,"size":1500,"listingType":"Sale","pictureURL":"https://s3-us-west-1.amazonaws.com/zallosimilarhomes/007.jpg","createdAt":"2019-04-03T20:44:17.471Z","__v":0,"lat":33.2948962,"lng":-111.8614931},{"_id":"5ca51b214442b650d47ad225","address":"2712 W Jasper Dr","city":"Chandler","zip":"85224","state":"AZ","price":350000,"beds":4,"baths":3,"size":2508,"listingType":"Sale","pictureURL":"https://s3-us-west-1.amazonaws.com/zallosimilarhomes/008.jpg","createdAt":"2019-04-03T20:44:17.471Z","__v":0,"lat":33.3264072,"lng":-111.8887643},{"_id":"5ca51b214442b650d47ad26e","address":"1463 W Park Ave","city":"Chandler","zip":"85224","state":"AZ","price":310000,"beds":4,"baths":3,"size":2200,"listingType":"Sale","pictureURL":"https://s3-us-west-1.amazonaws.com/zallosimilarhomes/081.jpg","createdAt":"2019-04-03T20:44:17.480Z","__v":0,"lat":33.3219298,"lng":-111.8669892},{"_id":"5ca51b214442b650d47ad26f","address":"3205 N Margate Pl","city":"Chandler","zip":"85224","state":"AZ","price":360000,"beds":4,"baths":4,"size":2740,"listingType":"Sale","pictureURL":"https://s3-us-west-1.amazonaws.com/zallosimilarhomes/082.jpg","createdAt":"2019-04-03T20:44:17.480Z","__v":0,"lat":33.352647,"lng":-111.8857135},{"_id":"5ca51b214442b650d47ad277","address":"3217 N Ash Cir","city":"Chandler","zip":"85224","state":"AZ","price":550000,"beds":5,"baths":5,"size":3290,"listingType":"Sale","pictureURL":"https://s3-us-west-1.amazonaws.com/zallosimilarhomes/090.jpg","createdAt":"2019-04-03T20:44:17.481Z","__v":0,"lat":33.3533394,"lng":-111.8699702},{"_id":"5ca51b214442b650d47ad27c","address":"1166 N Bullmoose Dr","city":"Chandler","zip":"85224","state":"AZ","price":250000,"beds":3,"baths":2,"size":1900,"listingType":"Sale","pictureURL":"https://s3-us-west-1.amazonaws.com/zallosimilarhomes/095.jpg","createdAt":"2019-04-03T20:44:17.482Z","__v":0,"lat":33.3232724,"lng":-111.8850614},{"_id":"5ca51b214442b650d47ad27d","address":"1292 W Cindy St","city":"Chandler","zip":"85224","state":"AZ","price":520000,"beds":5,"baths":4,"size":3317,"listingType":"Sale","pictureURL":"https://s3-us-west-1.amazonaws.com/zallosimilarhomes/096.jpg","createdAt":"2019-04-03T20:44:17.482Z","__v":0,"lat":33.29969,"lng":-111.864474},{"_id":"5ca51b214442b650d47ad27e","address":"2105 N Tamarisk St","city":"Chandler","zip":"85224","state":"AZ","price":250000,"beds":3,"baths":2,"size":1900,"listingType":"Sale","pictureURL":"https://s3-us-west-1.amazonaws.com/zallosimilarhomes/097.jpg","createdAt":"2019-04-03T20:44:17.482Z","__v":0,"lat":33.3369179,"lng":-111.8814284},{"_id":"5ca51b214442b650d47ad241","address":"1640 W Gail Dr","city":"Chandler","zip":"85224","state":"AZ","price":410000,"beds":4,"baths":4,"size":3140,"listingType":"Sale","pictureURL":"https://s3-us-west-1.amazonaws.com/zallosimilarhomes/036.jpg","createdAt":"2019-04-03T20:44:17.474Z","__v":0,"lat":33.3228571,"lng":-111.87011},{"_id":"5ca51b214442b650d47ad24e","address":"921 N Santa Anna Pl","city":"Chandler","zip":"85224","state":"AZ","price":400000,"beds":4,"baths":3,"size":2765,"listingType":"Sale","pictureURL":"https://s3-us-west-1.amazonaws.com/zallosimilarhomes/049.jpg","createdAt":"2019-04-03T20:44:17.476Z","__v":0,"lat":33.318867,"lng":-111.8768172},{"_id":"5ca51b214442b650d47ad258","address":"520 N Eucalyptus Pl","city":"Chandler","zip":"85225","state":"AZ","price":310000,"beds":4,"baths":3,"size":2200,"listingType":"Sale","pictureURL":"https://s3-us-west-1.amazonaws.com/zallosimilarhomes/059.jpg","createdAt":"2019-04-03T20:44:17.477Z","__v":0,"lat":33.3124234,"lng":-111.8065774},{"_id":"5ca51b214442b650d47ad270","address":"605 W Crofton St","city":"Chandler","zip":"85225","state":"AZ","price":410000,"beds":4,"baths":4,"size":3140,"listingType":"Sale","pictureURL":"https://s3-us-west-1.amazonaws.com/zallosimilarhomes/083.jpg","createdAt":"2019-04-03T20:44:17.480Z","__v":0,"lat":33.3514033,"lng":-111.8504774},{"_id":"5ca51b214442b650d47ad275","address":"968 E Elgin St","city":"Chandler","zip":"85225","state":"AZ","price":410000,"beds":4,"baths":4,"size":3140,"listingType":"Sale","pictureURL":"https://s3-us-west-1.amazonaws.com/zallosimilarhomes/088.jpg","createdAt":"2019-04-03T20:44:17.481Z","__v":0,"lat":33.2978804,"lng":-111.825069},{"_id":"5ca51b214442b650d47ad280","address":"1112 N Bogle Ave","city":"Chandler","zip":"85225","state":"AZ","price":410000,"beds":4,"baths":4,"size":3140,"listingType":"Sale","pictureURL":"https://s3-us-west-1.amazonaws.com/zallosimilarhomes/099.jpg","createdAt":"2019-04-03T20:44:17.482Z","__v":0,"lat":33.3226574,"lng":-111.8324284},{"_id":"5ca51b214442b650d47ad229","address":"800 E Buffalo St","city":"Chandler","zip":"85225","state":"AZ","price":230000,"beds":3,"baths":2,"size":2310,"listingType":"Sale","pictureURL":"https://s3-us-west-1.amazonaws.com/zallosimilarhomes/012.jpg","createdAt":"2019-04-03T20:44:17.472Z","__v":0,"lat":33.3048649,"lng":-111.827724},{"_id":"5ca51b214442b650d47ad22d","address":"530 N Hamilton","city":"Chandler","zip":"85225","state":"AZ","price":460000,"beds":5,"baths":4,"size":2980,"listingType":"Sale","pictureURL":"https://s3-us-west-1.amazonaws.com/zallosimilarhomes/016.jpg","createdAt":"2019-04-03T20:44:17.472Z","__v":0,"lat":33.3122701,"lng":-111.8330805},{"_id":"5ca51b214442b650d47ad236","address":"102 N Danyell Ct","city":"Chandler","zip":"85225","state":"AZ","price":360000,"beds":4,"baths":4,"size":2740,"listingType":"Sale","pictureURL":"https://s3-us-west-1.amazonaws.com/zallosimilarhomes/025.jpg","createdAt":"2019-04-03T20:44:17.473Z","__v":0,"lat":33.304502,"lng":-111.8099311},{"_id":"5ca51b214442b650d47ad265","address":"1764 E Kesler Ln","city":"Chandler","zip":"85225","state":"AZ","price":520000,"beds":5,"baths":4,"size":3317,"listingType":"Sale","pictureURL":"https://s3-us-west-1.amazonaws.com/zallosimilarhomes/072.jpg","createdAt":"2019-04-03T20:44:17.478Z","__v":0,"lat":33.2925923,"lng":-111.8124929},{"_id":"5ca51b214442b650d47ad266","address":"1351 E Folley Pl","city":"Chandler","zip":"85225","state":"AZ","price":350000,"beds":4,"baths":3,"size":2508,"listingType":"Sale","pictureURL":"https://s3-us-west-1.amazonaws.com/zallosimilarhomes/073.jpg","createdAt":"2019-04-03T20:44:17.478Z","__v":0,"lat":33.2982345,"lng":-111.8187111},{"_id":"5ca51b214442b650d47ad274","address":"967 E Jacob St","city":"Chandler","zip":"85225","state":"AZ","price":200000,"beds":3,"baths":2.5,"size":1876,"listingType":"Sale","pictureURL":"https://s3-us-west-1.amazonaws.com/zallosimilarhomes/087.jpg","createdAt":"2019-04-03T20:44:17.481Z","__v":0,"lat":33.3152381,"lng":-111.8248827},{"_id":"5ca51b3c9bdf2e00ec3274fa","address":"883 E Constitution Dr","city":"Chandler","zip":"85225","state":"AZ","price":320000,"beds":5,"baths":3,"size":2675,"listingType":"Sale","createdAt":"2019-03-27T02:59:14.416Z","pictureURL":"https://s3-us-west-1.amazonaws.com/zallosimilarhomes/101.jpg","__v":0,"lat":33.3220499,"lng":-111.8266527}]